{
"type": "FeatureCollection",
"name": "orte",
"crs": { "type": "name", "properties": { "name": "urn:ogc:def:crs:OGC:1.3:CRS84" } },
"features": [
{ "type": "Feature", "properties": { "fid": 1, "name": "Vatican City", "weight": 3, "abv": "vty", "name_eng": "Vatican City", "words": null, "days_spent": null }, "geometry": { "type": "Point", "coordinates": [ 12.4533865, 41.9032822 ] } },
{ "type": "Feature", "properties": { "fid": 2, "name": "Dortmund", "weight": 2, "abv": "drd", "name_eng": "Dortmund", "words": null, "days_spent": null }, "geometry": { "type": "Point", "coordinates": [ 7.4500256, 51.5299671 ] } },
{ "type": "Feature", "properties": { "fid": 3, "name": "Wuppertal", "weight": 2, "abv": "wpl", "name_eng": "Wuppertal", "words": null, "days_spent": null }, "geometry": { "type": "Point", "coordinates": [ 7.169991, 51.25001 ] } },
{ "type": "Feature", "properties": { "fid": 4, "name": "Oldenburg", "weight": 2, "abv": "odg", "name_eng": "Oldenburg", "words": null, "days_spent": null }, "geometry": { "type": "Point", "coordinates": [ 8.2200044, 53.1299986 ] } },
{ "type": "Feature", "properties": { "fid": 5, "name": "Erfurt", "weight": 2, "abv": "eft", "name_eng": "Erfurt", "words": null, "days_spent": null }, "geometry": { "type": "Point", "coordinates": [ 11.0299621, 50.9700529 ] } },
{ "type": "Feature", "properties": { "fid": 6, "name": "Augsburg", "weight": 2, "abv": "agg", "name_eng": "Augsburg", "words": null, "days_spent": null }, "geometry": { "type": "Point", "coordinates": [ 10.8999959, 48.3500061 ] } },
{ "type": "Feature", "properties": { "fid": 7, "name": "Luzern", "weight": 2, "abv": "lzn", "name_eng": "Luzern", "words": null, "days_spent": null }, "geometry": { "type": "Point", "coordinates": [ 8.2800008, 47.0504214 ] } },
{ "type": "Feature", "properties": { "fid": 8, "name": "Maribor", "weight": 2, "abv": "mrr", "name_eng": "Maribor", "words": null, "days_spent": null }, "geometry": { "type": "Point", "coordinates": [ 15.6500419, 46.5404783 ] } },
{ "type": "Feature", "properties": { "fid": 9, "name": "Utrecht", "weight": 2, "abv": "urt", "name_eng": "Utrecht", "words": null, "days_spent": null }, "geometry": { "type": "Point", "coordinates": [ 5.1200386, 52.1003457 ] } },
{ "type": "Feature", "properties": { "fid": 10, "name": "Verona", "weight": 2, "abv": "vra", "name_eng": "Verona", "words": null, "days_spent": null }, "geometry": { "type": "Point", "coordinates": [ 10.9900162, 45.4403904 ] } },
{ "type": "Feature", "properties": { "fid": 11, "name": "Bonn", "weight": 2, "abv": "bnn", "name_eng": "Bonn", "words": "Here is where Mozart was born, kinda a big deal (and also Haribo!) ", "days_spent": null }, "geometry": { "type": "Point", "coordinates": [ 7.0800223, 50.7204557 ] } },
{ "type": "Feature", "properties": { "fid": 12, "name": "Münster", "weight": 2, "abv": "mnr", "name_eng": "Muenster", "words": null, "days_spent": null }, "geometry": { "type": "Point", "coordinates": [ 7.6200411, 51.9704053 ] } },
{ "type": "Feature", "properties": { "fid": 13, "name": "Freiburg", "weight": 2, "abv": "feg", "name_eng": "Freiburg", "words": null, "days_spent": null }, "geometry": { "type": "Point", "coordinates": [ 7.8699483, 48.0004151 ] } },
{ "type": "Feature", "properties": { "fid": 14, "name": "Bremerhaven", "weight": 2, "abv": "bhn", "name_eng": "Bremerhaven", "words": null, "days_spent": null }, "geometry": { "type": "Point", "coordinates": [ 8.5799825, 53.550438 ] } },
{ "type": "Feature", "properties": { "fid": 15, "name": "Osnabrück", "weight": 2, "abv": "onk", "name_eng": "Osnabrueck", "words": null, "days_spent": null }, "geometry": { "type": "Point", "coordinates": [ 8.049989, 52.280438 ] } },
{ "type": "Feature", "properties": { "fid": 16, "name": "Göttingen", "weight": 2, "abv": "gtn", "name_eng": "Goettingen", "words": null, "days_spent": null }, "geometry": { "type": "Point", "coordinates": [ 9.920004, 51.5204328 ] } },
{ "type": "Feature", "properties": { "fid": 17, "name": "Jena", "weight": 2, "abv": "jna", "name_eng": "Jena", "words": "'Alleged' Tower Rapunzel was trapped in", "days_spent": null }, "geometry": { "type": "Point", "coordinates": [ 11.5800061, 50.9304429 ] } },
{ "type": "Feature", "properties": { "fid": 18, "name": "Saarbrücken", "weight": 2, "abv": "san", "name_eng": "Saarbruecken", "words": null, "days_spent": null }, "geometry": { "type": "Point", "coordinates": [ 6.9700032, 49.2503904 ] } },
{ "type": "Feature", "properties": { "fid": 19, "name": "Regensburg", "weight": 2, "abv": "rgg", "name_eng": "Regensburg", "words": null, "days_spent": null }, "geometry": { "type": "Point", "coordinates": [ 12.1200248, 49.0204045 ] } },
{ "type": "Feature", "properties": { "fid": 20, "name": "Rosenheim", "weight": 2, "abv": "rsm", "name_eng": "Rosenheim", "words": null, "days_spent": null }, "geometry": { "type": "Point", "coordinates": [ 12.1333056, 47.8503467 ] } },
{ "type": "Feature", "properties": { "fid": 21, "name": "Leipzig", "weight": 2, "abv": "lig", "name_eng": "Leipzig", "words": null, "days_spent": null }, "geometry": { "type": "Point", "coordinates": [ 12.4099812, 51.3354053 ] } },
{ "type": "Feature", "properties": { "fid": 22, "name": "Passau", "weight": 2, "abv": "psu", "name_eng": "Passau", "words": null, "days_spent": null }, "geometry": { "type": "Point", "coordinates": [ 13.4411788, 48.5754623 ] } },
{ "type": "Feature", "properties": { "fid": 23, "name": "Salzburg", "weight": 2, "abv": "slg", "name_eng": "Salzburg", "words": null, "days_spent": null }, "geometry": { "type": "Point", "coordinates": [ 13.0400203, 47.8104783 ] } },
{ "type": "Feature", "properties": { "fid": 24, "name": "Stuttgart", "weight": 2, "abv": "sut", "name_eng": "Stuttgart", "words": null, "days_spent": null }, "geometry": { "type": "Point", "coordinates": [ 9.1999963, 48.7799799 ] } },
{ "type": "Feature", "properties": { "fid": 25, "name": "Bremen", "weight": 2, "abv": "ben", "name_eng": "Bremen", "words": "The starting point of my adventure. From here I spun a bottle to see what direction to travel.", "days_spent": null }, "geometry": { "type": "Point", "coordinates": [ 8.8000207, 53.0800016 ] } },
{ "type": "Feature", "properties": { "fid": 26, "name": "Nürnberg", "weight": 2, "abv": "nrg", "name_eng": "Nuremberg", "words": null, "days_spent": null }, "geometry": { "type": "Point", "coordinates": [ 11.0799849, 49.4499907 ] } },
{ "type": "Feature", "properties": { "fid": 27, "name": "Rennes", "weight": 2, "abv": "rns", "name_eng": "Rennes", "words": null, "days_spent": null }, "geometry": { "type": "Point", "coordinates": [ -1.670012, 48.1000214 ] } },
{ "type": "Feature", "properties": { "fid": 28, "name": "Nice", "weight": 2, "abv": "nce", "name_eng": "Nice", "words": null, "days_spent": null }, "geometry": { "type": "Point", "coordinates": [ 7.2630781, 43.7169636 ] } },
{ "type": "Feature", "properties": { "fid": 29, "name": "Lille", "weight": 2, "abv": "lle", "name_eng": "Lille", "words": null, "days_spent": null }, "geometry": { "type": "Point", "coordinates": [ 3.0780622, 50.651915 ] } },
{ "type": "Feature", "properties": { "fid": 30, "name": "Strasbourg", "weight": 2, "abv": "srg", "name_eng": "Strasbourg", "words": null, "days_spent": null }, "geometry": { "type": "Point", "coordinates": [ 7.7500073, 48.5799662 ] } },
{ "type": "Feature", "properties": { "fid": 31, "name": "Antwerpen", "weight": 2, "abv": "atn", "name_eng": "Antwerpen", "words": null, "days_spent": null }, "geometry": { "type": "Point", "coordinates": [ 4.4130712, 51.2223194 ] } },
{ "type": "Feature", "properties": { "fid": 32, "name": "Genoa", "weight": 2, "abv": "gna", "name_eng": "Genoa", "words": null, "days_spent": null }, "geometry": { "type": "Point", "coordinates": [ 8.9300386, 44.4099882 ] } },
{ "type": "Feature", "properties": { "fid": 33, "name": "Koln", "weight": 2, "abv": "cle", "name_eng": "Cologne", "words": null, "days_spent": null }, "geometry": { "type": "Point", "coordinates": [ 6.9480586, 50.9319495 ] } },
{ "type": "Feature", "properties": { "fid": 34, "name": "Monaco", "weight": 1, "abv": "mno", "name_eng": "Monaco", "words": null, "days_spent": null }, "geometry": { "type": "Point", "coordinates": [ 7.4069132, 43.7396457 ] } },
{ "type": "Feature", "properties": { "fid": 35, "name": "Florence", "weight": 2, "abv": "foe", "name_eng": "Florence", "words": null, "days_spent": null }, "geometry": { "type": "Point", "coordinates": [ 11.2500004, 43.7800008 ] } },
{ "type": "Feature", "properties": { "fid": 36, "name": "Dresden", "weight": 2, "abv": "den", "name_eng": "Dresden", "words": "", "days_spent": null }, "geometry": { "type": "Point", "coordinates": [ 13.7500028, 51.0499705 ] } },
{ "type": "Feature", "properties": { "fid": 37, "name": "Venice", "weight": 2, "abv": "vne", "name_eng": "Venice", "words": null, "days_spent": null }, "geometry": { "type": "Point", "coordinates": [ 12.3349987, 45.4386593 ] } },
{ "type": "Feature", "properties": { "fid": 38, "name": "Budapest", "weight": 1, "abv": "bdt", "name_eng": "Budapest", "words": null, "days_spent": null }, "geometry": { "type": "Point", "coordinates": [ 19.0813748, 47.5019522 ] } },
{ "type": "Feature", "properties": { "fid": 39, "name": "Hamburg", "weight": 2, "abv": "hmg", "name_eng": "Hamburg", "words": null, "days_spent": null }, "geometry": { "type": "Point", "coordinates": [ 9.9980533, 53.5519705 ] } },
{ "type": "Feature", "properties": { "fid": 40, "name": "Munich", "weight": 2, "abv": "mnh", "name_eng": "Munich", "words": null, "days_spent": null }, "geometry": { "type": "Point", "coordinates": [ 11.5730476, 48.1318879 ] } },
{ "type": "Feature", "properties": { "fid": 41, "name": "Brussels", "weight": 1, "abv": "bus", "name_eng": "Brussels", "words": null, "days_spent": null }, "geometry": { "type": "Point", "coordinates": [ 4.3313707, 50.8352629 ] } },
{ "type": "Feature", "properties": { "fid": 42, "name": "Amsterdam", "weight": 1, "abv": "asm", "name_eng": "Amsterdam", "words": null, "days_spent": null }, "geometry": { "type": "Point", "coordinates": [ 4.9146943, 52.3519145 ] } },
{ "type": "Feature", "properties": { "fid": 43, "name": "Berlin", "weight": 1, "abv": "brn", "name_eng": "Berlin", "words": "Berlin, Berlin, wir fahren nach Berlin!", "days_spent": 11.0 }, "geometry": { "type": "Point", "coordinates": [ 13.3996028, 52.5237645 ] } },
{ "type": "Feature", "properties": { "fid": 44, "name": "Vienna", "weight": 1, "abv": "vea", "name_eng": "Vienna", "words": null, "days_spent": null }, "geometry": { "type": "Point", "coordinates": [ 16.3646931, 48.2019611 ] } },
{ "type": "Feature", "properties": { "fid": 45, "name": "Rome", "weight": 1, "abv": "rme", "name_eng": "Rome", "words": null, "days_spent": null }, "geometry": { "type": "Point", "coordinates": [ 12.4813126, 41.8979015 ] } },
{ "type": "Feature", "properties": { "fid": 46, "name": "Paris", "weight": 1, "abv": "prs", "name_eng": "Paris", "words": null, "days_spent": null }, "geometry": { "type": "Point", "coordinates": [ 2.352992461539213, 48.858092316269108 ] } },
{ "type": "Feature", "properties": { "fid": 47, "name": "Dreiländerpunkt", "weight": 3, "abv": "det", "name_eng": "Dreilaenderpunkt", "words": "My finger was in three countries at once!? Pretty hard concept for an Island boy.", "days_spent": null }, "geometry": { "type": "Point", "coordinates": [ 6.019877426428817, 50.755442525367933 ] } },
{ "type": "Feature", "properties": { "fid": 48, "name": "Aachen", "weight": 2, "abv": "acn", "name_eng": "Aachen", "words": null, "days_spent": 3.0 }, "geometry": { "type": "Point", "coordinates": [ 6.084049851174387, 50.775179144119015 ] } },
{ "type": "Feature", "properties": { "fid": 49, "name": "Konigstein", "weight": 3, "abv": "knn", "name_eng": "Konigstein", "words": null, "days_spent": null }, "geometry": { "type": "Point", "coordinates": [ 14.060697916087756, 50.918008383666731 ] } },
{ "type": "Feature", "properties": { "fid": 50, "name": "Bad Schandau", "weight": 3, "abv": "bdu", "name_eng": "Bad Schandau", "words": null, "days_spent": null }, "geometry": { "type": "Point", "coordinates": [ 14.157035600686918, 50.920917722449246 ] } },
{ "type": "Feature", "properties": { "fid": 51, "name": "Frauenstein", "weight": 2, "abv": "fan", "name_eng": "Frauenstein", "words": null, "days_spent": null }, "geometry": { "type": "Point", "coordinates": [ 13.53806255137337, 50.783017727749247 ] } },
{ "type": "Feature", "properties": { "fid": 52, "name": "Weimar", "weight": 2, "abv": "wir", "name_eng": "Weimar", "words": null, "days_spent": null }, "geometry": { "type": "Point", "coordinates": [ 11.325890261815381, 50.990868845549421 ] } },
{ "type": "Feature", "properties": { "fid": 53, "name": "Oberaudorf", "weight": 2, "abv": "oef", "name_eng": "Oberaudorf", "words": null, "days_spent": null }, "geometry": { "type": "Point", "coordinates": [ 12.172594672416713, 47.647649287474607 ] } },
{ "type": "Feature", "properties": { "fid": 54, "name": "Mittelneufnach", "weight": 2, "abv": "mth", "name_eng": "Mittelneufnach", "words": null, "days_spent": null }, "geometry": { "type": "Point", "coordinates": [ 10.594127669515744, 48.1803442103583 ] } },
{ "type": "Feature", "properties": { "fid": 55, "name": "Schwabmunchen", "weight": 2, "abv": "shn", "name_eng": "Schwabmunchen", "words": null, "days_spent": null }, "geometry": { "type": "Point", "coordinates": [ 10.757445643622429, 48.178180499061135 ] } },
{ "type": "Feature", "properties": { "fid": 56, "name": "Falkenberg", "weight": 2, "abv": "flg", "name_eng": "Falkenberg", "words": null, "days_spent": null }, "geometry": { "type": "Point", "coordinates": [ 13.24542403563213, 51.582149737133662 ] } },
{ "type": "Feature", "properties": { "fid": 57, "name": "Bad Liebenwerda", "weight": 2, "abv": "bda", "name_eng": "Bad Liebenwerda", "words": null, "days_spent": null }, "geometry": { "type": "Point", "coordinates": [ 13.406371424872649, 51.519734219136126 ] } },
{ "type": "Feature", "properties": { "fid": 58, "name": "Übigau", "weight": 2, "abv": "ubu", "name_eng": "Uebigau", "words": null, "days_spent": null }, "geometry": { "type": "Point", "coordinates": [ 13.302534399556185, 51.595052602241537 ] } },
{ "type": "Feature", "properties": { "fid": 59, "name": "Klosterneuburg", "weight": 3, "abv": "kog", "name_eng": "Klosterneuburg", "words": null, "days_spent": null }, "geometry": { "type": "Point", "coordinates": [ 16.310698431152549, 48.31822422946847 ] } },
{ "type": "Feature", "properties": { "fid": 60, "name": "Chur", "weight": 2, "abv": "cur", "name_eng": "Chur", "words": "Chur to the Chur!", "days_spent": null }, "geometry": { "type": "Point", "coordinates": [ 9.525985394248652, 46.854569540019568 ] } },
{ "type": "Feature", "properties": { "fid": 61, "name": "Ovelgönne", "weight": 3, "abv": "oee", "name_eng": "Ovelgoenne", "words": null, "days_spent": null }, "geometry": { "type": "Point", "coordinates": [ 8.419183657038637, 53.342086168537463 ] } },
{ "type": "Feature", "properties": { "fid": 62, "name": "Brake", "weight": 3, "abv": "bae", "name_eng": "Brake", "words": null, "days_spent": null }, "geometry": { "type": "Point", "coordinates": [ 8.476438239053412, 53.32804900471772 ] } },
{ "type": "Feature", "properties": { "fid": 63, "name": "Nordenham", "weight": 2, "abv": "nrm", "name_eng": "Nordenham", "words": null, "days_spent": null }, "geometry": { "type": "Point", "coordinates": [ 8.483649143589275, 53.486666269724822 ] } },
{ "type": "Feature", "properties": { "fid": 64, "name": "Böblingen", "weight": 2, "abv": "bbn", "name_eng": "Boeblingen", "words": null, "days_spent": null }, "geometry": { "type": "Point", "coordinates": [ 9.032158615284123, 48.676666637966242 ] } },
{ "type": "Feature", "properties": { "fid": 65, "name": "Alpirsbach", "weight": 2, "abv": "aph", "name_eng": "Alpirsbach", "words": null, "days_spent": null }, "geometry": { "type": "Point", "coordinates": [ 8.399810360185603, 48.348670652263706 ] } },
{ "type": "Feature", "properties": { "fid": 66, "name": "Freudenstadt", "weight": 2, "abv": "fet", "name_eng": "Freudenstadt", "words": null, "days_spent": null }, "geometry": { "type": "Point", "coordinates": [ 8.410554607944043, 48.463556979021376 ] } },
{ "type": "Feature", "properties": { "fid": 67, "name": "Tübingen", "weight": 2, "abv": "ten", "name_eng": "Tuebingen", "words": null, "days_spent": null }, "geometry": { "type": "Point", "coordinates": [ 9.055449836934997, 48.520266017833066 ] } },
{ "type": "Feature", "properties": { "fid": 68, "name": "Dürrenmettstetten", "weight": 2, "abv": "drn", "name_eng": "Duerrenmettstetten", "words": "Pizza on top of the world!", "days_spent": null }, "geometry": { "type": "Point", "coordinates": [ 8.580587736899769, 48.386101026373979 ] } },
{ "type": "Feature", "properties": { "fid": 69, "name": "Gutach", "weight": 2, "abv": "gth", "name_eng": "Gutach", "words": null, "days_spent": null }, "geometry": { "type": "Point", "coordinates": [ 8.197688706045284, 48.271783576944522 ] } },
{ "type": "Feature", "properties": { "fid": 70, "name": "Sanremo", "weight": 2, "abv": "sno", "name_eng": "Sanremo", "words": null, "days_spent": null }, "geometry": { "type": "Point", "coordinates": [ 7.774889336759005, 43.818373609951749 ] } },
{ "type": "Feature", "properties": { "fid": 71, "name": "Cinque Terre", "weight": 2, "abv": "cne", "name_eng": "Cinque Terre", "words": null, "days_spent": null }, "geometry": { "type": "Point", "coordinates": [ 9.684433003250133, 44.135910075448081 ] } },
{ "type": "Feature", "properties": { "fid": 72, "name": "Èze", "weight": 3, "abv": "eze", "name_eng": "Eze", "words": "Far, far nicer than Monaco next door. Lovely Midevil French vibes! ", "days_spent": null }, "geometry": { "type": "Point", "coordinates": [ 7.3618487249446, 43.728433802236751 ] } },
{ "type": "Feature", "properties": { "fid": 73, "name": "Le Mont-Saint-Michel", "weight": 2, "abv": "lml", "name_eng": "Le Mont-Saint-Michel", "words": null, "days_spent": null }, "geometry": { "type": "Point", "coordinates": [ -1.511313524529238, 48.635852728190422 ] } },
{ "type": "Feature", "properties": { "fid": 74, "name": "Beverungen", "weight": 3, "abv": "bvn", "name_eng": "Beverungen", "words": "I was here for a job interview, but still had a good time!", "days_spent": null }, "geometry": { "type": "Point", "coordinates": [ 9.373594945057409, 51.666927498136644 ] } },
{ "type": "Feature", "properties": { "fid": 75, "name": "Rubihorn", "weight": 2, "abv": "rbn", "name_eng": "Rubihorn", "words": null, "days_spent": null }, "geometry": { "type": "Point", "coordinates": [ 10.314346024426714, 47.42502180957122 ] } },
{ "type": "Feature", "properties": { "fid": 76, "name": "Brunnstein", "weight": 2, "abv": "bun", "name_eng": "Brunnstein", "words": null, "days_spent": null }, "geometry": { "type": "Point", "coordinates": [ 12.097517019254731, 47.64708413821031 ] } },
{ "type": "Feature", "properties": { "fid": 77, "name": "Senftenberg", "weight": 2, "abv": "sng", "name_eng": "Senftenberg", "words": null, "days_spent": null }, "geometry": { "type": "Point", "coordinates": [ 14.004580009970089, 51.518896435692902 ] } },
{ "type": "Feature", "properties": { "fid": 78, "name": "San Fruttuoso", "weight": 2, "abv": "sfo", "name_eng": "San Fruttuoso", "words": null, "days_spent": null }, "geometry": { "type": "Point", "coordinates": [ 9.176346448934451, 44.317853081380875 ] } },
{ "type": "Feature", "properties": { "fid": 79, "name": "Interlaken", "weight": 2, "abv": "itn", "name_eng": "Interlaken", "words": "Forgot my towel so only dipped the toes in.", "days_spent": null }, "geometry": { "type": "Point", "coordinates": [ 7.884737682087827, 46.692917292236842 ] } },
{ "type": "Feature", "properties": { "fid": 80, "name": "Lauterbrunnen", "weight": 2, "abv": "ltn", "name_eng": "Lauterbrunnen", "words": null, "days_spent": null }, "geometry": { "type": "Point", "coordinates": [ 7.908654761788058, 46.593771834147525 ] } },
{ "type": "Feature", "properties": { "fid": 81, "name": "Blockhausen", "weight": 3, "abv": "bln", "name_eng": "Blockhausen", "words": "Amazing chainsaw sculptures", "days_spent": 0.5 }, "geometry": { "type": "Point", "coordinates": [ 13.438639921707312, 50.780832511753026 ] } },
{ "type": "Feature", "properties": { "fid": 82, "name": "Chiemsee", "weight": 3, "abv": "cie", "name_eng": "Chiemsee", "words": null, "days_spent": null }, "geometry": { "type": "Point", "coordinates": [ 12.364772552213815, 47.860784050338104 ] } },
{ "type": "Feature", "properties": { "fid": 83, "name": "Lauenstein", "weight": 3, "abv": "lun", "name_eng": "Lauenstein", "words": null, "days_spent": null }, "geometry": { "type": "Point", "coordinates": [ 13.822875006695899, 50.783275246656189 ] } },
{ "type": "Feature", "properties": { "fid": 84, "name": "Hochsalwand", "weight": 3, "abv": "hcd", "name_eng": "Hochsalwand", "words": null, "days_spent": null }, "geometry": { "type": "Point", "coordinates": [ 12.035735370672539, 47.716806567540914 ] } }
]
}
