{
"type": "FeatureCollection",
"name": "orte",
"crs": { "type": "name", "properties": { "name": "urn:ogc:def:crs:OGC::CRS84" } },
"features": [
{ "type": "Feature", "properties": { "fid": 1, "name": "Vatican City", "weight": 3, "abv": "VCAY", "name_eng": "Vatican City", "words": null, "days_spent": null }, "geometry": { "type": "Point", "coordinates": [ 12.4533865, 41.9032822 ] } },
{ "type": "Feature", "properties": { "fid": 2, "name": "Dortmund", "weight": 2, "abv": "DMOD", "name_eng": "Dortmund", "words": null, "days_spent": null }, "geometry": { "type": "Point", "coordinates": [ 7.4500256, 51.5299671 ] } },
{ "type": "Feature", "properties": { "fid": 3, "name": "Wuppertal", "weight": 2, "abv": "WRUL", "name_eng": "Wuppertal", "words": null, "days_spent": null }, "geometry": { "type": "Point", "coordinates": [ 7.169991, 51.25001 ] } },
{ "type": "Feature", "properties": { "fid": 4, "name": "Oldenburg", "weight": 2, "abv": "OBLG", "name_eng": "Oldenburg", "words": null, "days_spent": null }, "geometry": { "type": "Point", "coordinates": [ 8.2200044, 53.1299986 ] } },
{ "type": "Feature", "properties": { "fid": 5, "name": "Erfurt", "weight": 2, "abv": "EFRT", "name_eng": "Erfurt", "words": null, "days_spent": null }, "geometry": { "type": "Point", "coordinates": [ 11.0299621, 50.9700529 ] } },
{ "type": "Feature", "properties": { "fid": 6, "name": "Augsburg", "weight": 2, "abv": "ABUG", "name_eng": "Augsburg", "words": null, "days_spent": null }, "geometry": { "type": "Point", "coordinates": [ 10.8999959, 48.3500061 ] } },
{ "type": "Feature", "properties": { "fid": 7, "name": "Luzern", "weight": 2, "abv": "LZUN", "name_eng": "Luzern", "words": null, "days_spent": null }, "geometry": { "type": "Point", "coordinates": [ 8.2800008, 47.0504214 ] } },
{ "type": "Feature", "properties": { "fid": 8, "name": "Maribor", "weight": 2, "abv": "MIAR", "name_eng": "Maribor", "words": null, "days_spent": null }, "geometry": { "type": "Point", "coordinates": [ 15.6500419, 46.5404783 ] } },
{ "type": "Feature", "properties": { "fid": 9, "name": "Utrecht", "weight": 2, "abv": "UETT", "name_eng": "Utrecht", "words": null, "days_spent": null }, "geometry": { "type": "Point", "coordinates": [ 5.1200386, 52.1003457 ] } },
{ "type": "Feature", "properties": { "fid": 10, "name": "Verona", "weight": 2, "abv": "VREA", "name_eng": "Verona", "words": null, "days_spent": null }, "geometry": { "type": "Point", "coordinates": [ 10.9900162, 45.4403904 ] } },
{ "type": "Feature", "properties": { "fid": 11, "name": "Bonn", "weight": 2, "abv": "BBON", "name_eng": "Bonn", "words": "Here is where Mozart was born, kinda a big deal (and also Haribo!) ", "days_spent": null }, "geometry": { "type": "Point", "coordinates": [ 7.0800223, 50.7204557 ] } },
{ "type": "Feature", "properties": { "fid": 12, "name": "Münster", "weight": 2, "abv": "MSUR", "name_eng": "Muenster", "words": null, "days_spent": null }, "geometry": { "type": "Point", "coordinates": [ 7.6200411, 51.9704053 ] } },
{ "type": "Feature", "properties": { "fid": 13, "name": "Freiburg", "weight": 2, "abv": "FBRG", "name_eng": "Freiburg", "words": null, "days_spent": null }, "geometry": { "type": "Point", "coordinates": [ 7.8699483, 48.0004151 ] } },
{ "type": "Feature", "properties": { "fid": 14, "name": "Bremerhaven", "weight": 2, "abv": "BARN", "name_eng": "Bremerhaven", "words": null, "days_spent": null }, "geometry": { "type": "Point", "coordinates": [ 8.5799825, 53.550438 ] } },
{ "type": "Feature", "properties": { "fid": 15, "name": "Osnabrück", "weight": 2, "abv": "OUSK", "name_eng": "Osnabrueck", "words": null, "days_spent": null }, "geometry": { "type": "Point", "coordinates": [ 8.049989, 52.280438 ] } },
{ "type": "Feature", "properties": { "fid": 16, "name": "Göttingen", "weight": 2, "abv": "GNON", "name_eng": "Goettingen", "words": null, "days_spent": null }, "geometry": { "type": "Point", "coordinates": [ 9.920004, 51.5204328 ] } },
{ "type": "Feature", "properties": { "fid": 17, "name": "Jena", "weight": 2, "abv": "JJEA", "name_eng": "Jena", "words": "'Alleged' Tower Rapunzel was trapped in", "days_spent": null }, "geometry": { "type": "Point", "coordinates": [ 11.5800061, 50.9304429 ] } },
{ "type": "Feature", "properties": { "fid": 18, "name": "Saarbrücken", "weight": 2, "abv": "SCAN", "name_eng": "Saarbruecken", "words": null, "days_spent": null }, "geometry": { "type": "Point", "coordinates": [ 6.9700032, 49.2503904 ] } },
{ "type": "Feature", "properties": { "fid": 19, "name": "Regensburg", "weight": 2, "abv": "RBEG", "name_eng": "Regensburg", "words": null, "days_spent": null }, "geometry": { "type": "Point", "coordinates": [ 12.1200248, 49.0204045 ] } },
{ "type": "Feature", "properties": { "fid": 20, "name": "Rosenheim", "weight": 2, "abv": "RHOM", "name_eng": "Rosenheim", "words": null, "days_spent": null }, "geometry": { "type": "Point", "coordinates": [ 12.1333056, 47.8503467 ] } },
{ "type": "Feature", "properties": { "fid": 21, "name": "Leipzig", "weight": 2, "abv": "LPEG", "name_eng": "Leipzig", "words": null, "days_spent": null }, "geometry": { "type": "Point", "coordinates": [ 12.4099812, 51.3354053 ] } },
{ "type": "Feature", "properties": { "fid": 22, "name": "Passau", "weight": 2, "abv": "PSAU", "name_eng": "Passau", "words": null, "days_spent": null }, "geometry": { "type": "Point", "coordinates": [ 13.4411788, 48.5754623 ] } },
{ "type": "Feature", "properties": { "fid": 23, "name": "Salzburg", "weight": 2, "abv": "SBAG", "name_eng": "Salzburg", "words": null, "days_spent": null }, "geometry": { "type": "Point", "coordinates": [ 13.0400203, 47.8104783 ] } },
{ "type": "Feature", "properties": { "fid": 24, "name": "Stuttgart", "weight": 2, "abv": "SGTT", "name_eng": "Stuttgart", "words": null, "days_spent": null }, "geometry": { "type": "Point", "coordinates": [ 9.1999963, 48.7799799 ] } },
{ "type": "Feature", "properties": { "fid": 25, "name": "Bremen", "weight": 2, "abv": "BERN", "name_eng": "Bremen", "words": "The starting point of my adventure. From here I spun a bottle to see what direction to travel.", "days_spent": null }, "geometry": { "type": "Point", "coordinates": [ 8.8000207, 53.0800016 ] } },
{ "type": "Feature", "properties": { "fid": 26, "name": "Nürnberg", "weight": 2, "abv": "NBUG", "name_eng": "Nuremberg", "words": null, "days_spent": null }, "geometry": { "type": "Point", "coordinates": [ 11.0799849, 49.4499907 ] } },
{ "type": "Feature", "properties": { "fid": 27, "name": "Rennes", "weight": 2, "abv": "RNES", "name_eng": "Rennes", "words": null, "days_spent": null }, "geometry": { "type": "Point", "coordinates": [ -1.670012, 48.1000214 ] } },
{ "type": "Feature", "properties": { "fid": 28, "name": "Nice", "weight": 2, "abv": "NNIE", "name_eng": "Nice", "words": null, "days_spent": null }, "geometry": { "type": "Point", "coordinates": [ 7.2630781, 43.7169636 ] } },
{ "type": "Feature", "properties": { "fid": 29, "name": "Lille", "weight": 2, "abv": "LIIE", "name_eng": "Lille", "words": null, "days_spent": null }, "geometry": { "type": "Point", "coordinates": [ 3.0780622, 50.651915 ] } },
{ "type": "Feature", "properties": { "fid": 30, "name": "Strasbourg", "weight": 2, "abv": "SOTG", "name_eng": "Strasbourg", "words": null, "days_spent": null }, "geometry": { "type": "Point", "coordinates": [ 7.7500073, 48.5799662 ] } },
{ "type": "Feature", "properties": { "fid": 31, "name": "Antwerpen", "weight": 2, "abv": "ARNN", "name_eng": "Antwerpen", "words": null, "days_spent": null }, "geometry": { "type": "Point", "coordinates": [ 4.4130712, 51.2223194 ] } },
{ "type": "Feature", "properties": { "fid": 32, "name": "Genoa", "weight": 2, "abv": "GEEA", "name_eng": "Genoa", "words": null, "days_spent": null }, "geometry": { "type": "Point", "coordinates": [ 8.9300386, 44.4099882 ] } },
{ "type": "Feature", "properties": { "fid": 33, "name": "Koln", "weight": 2, "abv": "COOE", "name_eng": "Cologne", "words": null, "days_spent": null }, "geometry": { "type": "Point", "coordinates": [ 6.9480586, 50.9319495 ] } },
{ "type": "Feature", "properties": { "fid": 34, "name": "Monaco", "weight": 1, "abv": "MNOO", "name_eng": "Monaco", "words": null, "days_spent": null }, "geometry": { "type": "Point", "coordinates": [ 7.4069132, 43.7396457 ] } },
{ "type": "Feature", "properties": { "fid": 35, "name": "Florence", "weight": 2, "abv": "FELE", "name_eng": "Florence", "words": null, "days_spent": null }, "geometry": { "type": "Point", "coordinates": [ 11.2500004, 43.7800008 ] } },
{ "type": "Feature", "properties": { "fid": 36, "name": "Dresden", "weight": 2, "abv": "DSRN", "name_eng": "Dresden", "words": "", "days_spent": null }, "geometry": { "type": "Point", "coordinates": [ 13.7500028, 51.0499705 ] } },
{ "type": "Feature", "properties": { "fid": 37, "name": "Venice", "weight": 2, "abv": "VNEE", "name_eng": "Venice", "words": null, "days_spent": null }, "geometry": { "type": "Point", "coordinates": [ 12.3349987, 45.4386593 ] } },
{ "type": "Feature", "properties": { "fid": 38, "name": "Budapest", "weight": 1, "abv": "BPUT", "name_eng": "Budapest", "words": null, "days_spent": null }, "geometry": { "type": "Point", "coordinates": [ 19.0813748, 47.5019522 ] } },
{ "type": "Feature", "properties": { "fid": 39, "name": "Hamburg", "weight": 2, "abv": "HBAG", "name_eng": "Hamburg", "words": null, "days_spent": null }, "geometry": { "type": "Point", "coordinates": [ 9.9980533, 53.5519705 ] } },
{ "type": "Feature", "properties": { "fid": 40, "name": "Munich", "weight": 2, "abv": "MNUH", "name_eng": "Munich", "words": null, "days_spent": null }, "geometry": { "type": "Point", "coordinates": [ 11.5730476, 48.1318879 ] } },
{ "type": "Feature", "properties": { "fid": 41, "name": "Brussels", "weight": 1, "abv": "BSRS", "name_eng": "Brussels", "words": null, "days_spent": null }, "geometry": { "type": "Point", "coordinates": [ 4.3313707, 50.8352629 ] } },
{ "type": "Feature", "properties": { "fid": 42, "name": "Amsterdam", "weight": 1, "abv": "ARMM", "name_eng": "Amsterdam", "words": null, "days_spent": null }, "geometry": { "type": "Point", "coordinates": [ 4.9146943, 52.3519145 ] } },
{ "type": "Feature", "properties": { "fid": 43, "name": "Berlin", "weight": 1, "abv": "BREN", "name_eng": "Berlin", "words": "Berlin, Berlin, wir fahren nach Berlin!", "days_spent": 11.0 }, "geometry": { "type": "Point", "coordinates": [ 13.3996028, 52.5237645 ] } },
{ "type": "Feature", "properties": { "fid": 44, "name": "Vienna", "weight": 1, "abv": "VEIA", "name_eng": "Vienna", "words": null, "days_spent": null }, "geometry": { "type": "Point", "coordinates": [ 16.3646931, 48.2019611 ] } },
{ "type": "Feature", "properties": { "fid": 45, "name": "Rome", "weight": 1, "abv": "RROE", "name_eng": "Rome", "words": null, "days_spent": null }, "geometry": { "type": "Point", "coordinates": [ 12.4813126, 41.8979015 ] } },
{ "type": "Feature", "properties": { "fid": 46, "name": "Paris", "weight": 1, "abv": "PAAS", "name_eng": "Paris", "words": null, "days_spent": null }, "geometry": { "type": "Point", "coordinates": [ 2.352992461539213, 48.858092316269108 ] } },
{ "type": "Feature", "properties": { "fid": 47, "name": "Dreiländerpunkt", "weight": 3, "abv": "DURT", "name_eng": "Dreilaenderpunkt", "words": "My finger was in three countries at once!? Pretty hard concept for an Island boy.", "days_spent": null }, "geometry": { "type": "Point", "coordinates": [ 6.019877426428817, 50.755442525367933 ] } },
{ "type": "Feature", "properties": { "fid": 48, "name": "Aachen", "weight": 2, "abv": "ACAN", "name_eng": "Aachen", "words": null, "days_spent": 3.0 }, "geometry": { "type": "Point", "coordinates": [ 6.084049851174387, 50.775179144119015 ] } },
{ "type": "Feature", "properties": { "fid": 49, "name": "Konigstein", "weight": 3, "abv": "KTON", "name_eng": "Konigstein", "words": null, "days_spent": null }, "geometry": { "type": "Point", "coordinates": [ 14.060697916087756, 50.918008383666731 ] } },
{ "type": "Feature", "properties": { "fid": 50, "name": "Bad Schandau", "weight": 3, "abv": "BNAU", "name_eng": "Bad Schandau", "words": null, "days_spent": null }, "geometry": { "type": "Point", "coordinates": [ 14.157035600686918, 50.920917722449246 ] } },
{ "type": "Feature", "properties": { "fid": 51, "name": "Frauenstein", "weight": 2, "abv": "FTRN", "name_eng": "Frauenstein", "words": null, "days_spent": null }, "geometry": { "type": "Point", "coordinates": [ 13.53806255137337, 50.783017727749247 ] } },
{ "type": "Feature", "properties": { "fid": 52, "name": "Weimar", "weight": 2, "abv": "WIER", "name_eng": "Weimar", "words": null, "days_spent": null }, "geometry": { "type": "Point", "coordinates": [ 11.325890261815381, 50.990868845549421 ] } },
{ "type": "Feature", "properties": { "fid": 53, "name": "Oberaudorf", "weight": 2, "abv": "ODBF", "name_eng": "Oberaudorf", "words": null, "days_spent": null }, "geometry": { "type": "Point", "coordinates": [ 12.172594672416713, 47.647649287474607 ] } },
{ "type": "Feature", "properties": { "fid": 54, "name": "Mittelneufnach", "weight": 2, "abv": "MNIH", "name_eng": "Mittelneufnach", "words": null, "days_spent": null }, "geometry": { "type": "Point", "coordinates": [ 10.594127669515744, 48.1803442103583 ] } },
{ "type": "Feature", "properties": { "fid": 55, "name": "Schwabmunchen", "weight": 2, "abv": "SCCN", "name_eng": "Schwabmunchen", "words": null, "days_spent": null }, "geometry": { "type": "Point", "coordinates": [ 10.757445643622429, 48.178180499061135 ] } },
{ "type": "Feature", "properties": { "fid": 56, "name": "Falkenberg", "weight": 2, "abv": "FBAG", "name_eng": "Falkenberg", "words": null, "days_spent": null }, "geometry": { "type": "Point", "coordinates": [ 13.24542403563213, 51.582149737133662 ] } },
{ "type": "Feature", "properties": { "fid": 57, "name": "Bad Liebenwerda", "weight": 2, "abv": "BEAA", "name_eng": "Bad Liebenwerda", "words": null, "days_spent": null }, "geometry": { "type": "Point", "coordinates": [ 13.406371424872649, 51.519734219136126 ] } },
{ "type": "Feature", "properties": { "fid": 58, "name": "Übigau", "weight": 2, "abv": "UIEU", "name_eng": "Uebigau", "words": null, "days_spent": null }, "geometry": { "type": "Point", "coordinates": [ 13.302534399556185, 51.595052602241537 ] } },
{ "type": "Feature", "properties": { "fid": 59, "name": "Klosterneuburg", "weight": 3, "abv": "KBLG", "name_eng": "Klosterneuburg", "words": null, "days_spent": null }, "geometry": { "type": "Point", "coordinates": [ 16.310698431152549, 48.31822422946847 ] } },
{ "type": "Feature", "properties": { "fid": 60, "name": "Chur", "weight": 2, "abv": "CCHR", "name_eng": "Chur", "words": "Chur to the Chur!", "days_spent": null }, "geometry": { "type": "Point", "coordinates": [ 9.525985394248652, 46.854569540019568 ] } },
{ "type": "Feature", "properties": { "fid": 61, "name": "Ovelgönne", "weight": 3, "abv": "OEVE", "name_eng": "Ovelgoenne", "words": null, "days_spent": null }, "geometry": { "type": "Point", "coordinates": [ 8.419183657038637, 53.342086168537463 ] } },
{ "type": "Feature", "properties": { "fid": 62, "name": "Brake", "weight": 3, "abv": "BRRE", "name_eng": "Brake", "words": null, "days_spent": null }, "geometry": { "type": "Point", "coordinates": [ 8.476438239053412, 53.32804900471772 ] } },
{ "type": "Feature", "properties": { "fid": 63, "name": "Nordenham", "weight": 2, "abv": "NNOM", "name_eng": "Nordenham", "words": null, "days_spent": null }, "geometry": { "type": "Point", "coordinates": [ 8.483649143589275, 53.486666269724822 ] } },
{ "type": "Feature", "properties": { "fid": 64, "name": "Böblingen", "weight": 2, "abv": "BNON", "name_eng": "Boeblingen", "words": null, "days_spent": null }, "geometry": { "type": "Point", "coordinates": [ 9.032158615284123, 48.676666637966242 ] } },
{ "type": "Feature", "properties": { "fid": 65, "name": "Alpirsbach", "weight": 2, "abv": "ABLH", "name_eng": "Alpirsbach", "words": null, "days_spent": null }, "geometry": { "type": "Point", "coordinates": [ 8.399810360185603, 48.348670652263706 ] } },
{ "type": "Feature", "properties": { "fid": 66, "name": "Freudenstadt", "weight": 2, "abv": "FTRT", "name_eng": "Freudenstadt", "words": null, "days_spent": null }, "geometry": { "type": "Point", "coordinates": [ 8.410554607944043, 48.463556979021376 ] } },
{ "type": "Feature", "properties": { "fid": 67, "name": "Tübingen", "weight": 2, "abv": "TNUN", "name_eng": "Tuebingen", "words": null, "days_spent": null }, "geometry": { "type": "Point", "coordinates": [ 9.055449836934997, 48.520266017833066 ] } },
{ "type": "Feature", "properties": { "fid": 68, "name": "Dürrenmettstetten", "weight": 2, "abv": "DTUN", "name_eng": "Duerrenmettstetten", "words": "Pizza on top of the world!", "days_spent": null }, "geometry": { "type": "Point", "coordinates": [ 8.580587736899769, 48.386101026373979 ] } },
{ "type": "Feature", "properties": { "fid": 69, "name": "Gutach", "weight": 2, "abv": "GTUH", "name_eng": "Gutach", "words": null, "days_spent": null }, "geometry": { "type": "Point", "coordinates": [ 8.197688706045284, 48.271783576944522 ] } },
{ "type": "Feature", "properties": { "fid": 70, "name": "Sanremo", "weight": 2, "abv": "SRAO", "name_eng": "Sanremo", "words": null, "days_spent": null }, "geometry": { "type": "Point", "coordinates": [ 7.774889336759005, 43.818373609951749 ] } },
{ "type": "Feature", "properties": { "fid": 71, "name": "Cinque Terre", "weight": 2, "abv": "CEIE", "name_eng": "Cinque Terre", "words": null, "days_spent": null }, "geometry": { "type": "Point", "coordinates": [ 9.684433003250133, 44.135910075448081 ] } },
{ "type": "Feature", "properties": { "fid": 72, "name": "Èze", "weight": 3, "abv": "EEZE", "name_eng": "Eze", "words": "Far, far nicer than Monaco next door. Lovely Midevil French vibes! ", "days_spent": null }, "geometry": { "type": "Point", "coordinates": [ 7.3618487249446, 43.728433802236751 ] } },
{ "type": "Feature", "properties": { "fid": 73, "name": "Le Mont-Saint-Michel", "weight": 2, "abv": "LCEL", "name_eng": "Le Mont-Saint-Michel", "words": null, "days_spent": null }, "geometry": { "type": "Point", "coordinates": [ -1.511313524529238, 48.635852728190422 ] } },
{ "type": "Feature", "properties": { "fid": 74, "name": "Beverungen", "weight": 3, "abv": "BNEN", "name_eng": "Beverungen", "words": "I was here for a job interview, but still had a good time!", "days_spent": null }, "geometry": { "type": "Point", "coordinates": [ 9.373594945057409, 51.666927498136644 ] } },
{ "type": "Feature", "properties": { "fid": 75, "name": "Rubihorn", "weight": 2, "abv": "RHUN", "name_eng": "Rubihorn", "words": null, "days_spent": null }, "geometry": { "type": "Point", "coordinates": [ 10.314346024426714, 47.42502180957122 ] } },
{ "type": "Feature", "properties": { "fid": 76, "name": "Brunnstein", "weight": 2, "abv": "BTRN", "name_eng": "Brunnstein", "words": null, "days_spent": null }, "geometry": { "type": "Point", "coordinates": [ 12.097517019254731, 47.64708413821031 ] } },
{ "type": "Feature", "properties": { "fid": 77, "name": "Senftenberg", "weight": 2, "abv": "SBEG", "name_eng": "Senftenberg", "words": null, "days_spent": null }, "geometry": { "type": "Point", "coordinates": [ 14.004580009970089, 51.518896435692902 ] } },
{ "type": "Feature", "properties": { "fid": 78, "name": "San Fruttuoso", "weight": 2, "abv": "SUAO", "name_eng": "San Fruttuoso", "words": null, "days_spent": null }, "geometry": { "type": "Point", "coordinates": [ 9.176346448934451, 44.317853081380875 ] } },
{ "type": "Feature", "properties": { "fid": 79, "name": "Interlaken", "weight": 2, "abv": "IANN", "name_eng": "Interlaken", "words": "Forgot my towel so only dipped the toes in.", "days_spent": null }, "geometry": { "type": "Point", "coordinates": [ 7.884737682087827, 46.692917292236842 ] } },
{ "type": "Feature", "properties": { "fid": 80, "name": "Lauterbrunnen", "weight": 2, "abv": "LNAN", "name_eng": "Lauterbrunnen", "words": null, "days_spent": null }, "geometry": { "type": "Point", "coordinates": [ 7.908654761788058, 46.593771834147525 ] } },
{ "type": "Feature", "properties": { "fid": 81, "name": "Blockhausen", "weight": 3, "abv": "BULN", "name_eng": "Blockhausen", "words": "Amazing chainsaw sculptures", "days_spent": 0.5 }, "geometry": { "type": "Point", "coordinates": [ 13.438639921707312, 50.780832511753026 ] } },
{ "type": "Feature", "properties": { "fid": 82, "name": "Chiemsee", "weight": 3, "abv": "CMHE", "name_eng": "Chiemsee", "words": null, "days_spent": null }, "geometry": { "type": "Point", "coordinates": [ 12.364772552213815, 47.860784050338104 ] } },
{ "type": "Feature", "properties": { "fid": 83, "name": "Lauenstein", "weight": 3, "abv": "LTAN", "name_eng": "Lauenstein", "words": null, "days_spent": null }, "geometry": { "type": "Point", "coordinates": [ 13.822875006695899, 50.783275246656189 ] } },
{ "type": "Feature", "properties": { "fid": 84, "name": "Hochsalwand", "weight": 3, "abv": "HWOD", "name_eng": "Hochsalwand", "words": null, "days_spent": null }, "geometry": { "type": "Point", "coordinates": [ 12.035735370672539, 47.716806567540914 ] } },
{ "type": "Feature", "properties": { "fid": 85, "name": "Ludwigsburg", "weight": 3, "abv": "LDUG", "name_eng": "Ludwigsburg", "words": "Visited a German fairytale garden. Watch out for the Hexenhaus!", "days_spent": 0.0 }, "geometry": { "type": "Point", "coordinates": [ 9.191385274836207, 48.89890989388298 ] } },
{ "type": "Feature", "properties": { "fid": 86, "name": "Milano", "weight": 2, "abv": "duuno", "name_eng": "Milan", "words": "", "days_spent": 0.0 }, "geometry": { "type": "Point", "coordinates": [ 9.127530067771465, 45.489438939088259 ] } },
{ "type": "Feature", "properties": { "fid": 87, "name": "Willemshaven", "weight": 3, "abv": "WALN", "name_eng": "Willemshaven", "words": null, "days_spent": null }, "geometry": { "type": "Point", "coordinates": [ 8.114300366199485, 53.509846219549608 ] } },
{ "type": "Feature", "properties": { "fid": 88, "name": "Husum", "weight": 2, "abv": "HUSM", "name_eng": "Husum", "words": null, "days_spent": null }, "geometry": { "type": "Point", "coordinates": [ 9.052020540676324, 54.4770681834922 ] } },
{ "type": "Feature", "properties": { "fid": 89, "name": "Sankt-Peter Ording", "weight": 2, "abv": "SDNG", "name_eng": "Sankt-Peter Ording", "words": null, "days_spent": null }, "geometry": { "type": "Point", "coordinates": [ 8.609527997535427, 54.314213912539763 ] } },
{ "type": "Feature", "properties": { "fid": 90, "name": "Sylt", "weight": 2, "abv": "SSLT", "name_eng": "Sylt", "words": null, "days_spent": null }, "geometry": { "type": "Point", "coordinates": [ 8.305685068358196, 54.908820033669592 ] } },
{ "type": "Feature", "properties": { "fid": 91, "name": "Rantum", "weight": 3, "abv": "RNNM", "name_eng": "Rantum", "words": null, "days_spent": null }, "geometry": { "type": "Point", "coordinates": [ 8.287168769130293, 54.855813041295441 ] } },
{ "type": "Feature", "properties": { "fid": 92, "name": "Leer", "weight": 3, "abv": "LLER", "name_eng": "Leer", "words": null, "days_spent": null }, "geometry": { "type": "Point", "coordinates": [ 7.462583075656157, 53.230751790815908 ] } },
{ "type": "Feature", "properties": { "fid": 93, "name": "Norddeich", "weight": 2, "abv": "NERH", "name_eng": "Norddeich", "words": null, "days_spent": null }, "geometry": { "type": "Point", "coordinates": [ 7.150669741638874, 53.617645490380134 ] } },
{ "type": "Feature", "properties": { "fid": 94, "name": "Magdeburg", "weight": 2, "abv": "MBGG", "name_eng": "Magdeburg", "words": null, "days_spent": null }, "geometry": { "type": "Point", "coordinates": [ 11.631432320034969, 52.130199248717979 ] } },
{ "type": "Feature", "properties": { "fid": 95, "name": "Kirchheim Teck", "weight": 2, "abv": "KTRK", "name_eng": "Kirchheim Teck", "words": null, "days_spent": null }, "geometry": { "type": "Point", "coordinates": [ 9.452362394877563, 48.64772273797518 ] } },
{ "type": "Feature", "properties": { "fid": 96, "name": "Innsbrück", "weight": 3, "abv": "IUNK", "name_eng": "Innsbrueck", "words": null, "days_spent": null }, "geometry": { "type": "Point", "coordinates": [ 11.394069123393756, 47.26769048053815 ] } },
{ "type": "Feature", "properties": { "fid": 97, "name": "Leutasch", "weight": 2, "abv": "LAUH", "name_eng": "Leutasch", "words": null, "days_spent": null }, "geometry": { "type": "Point", "coordinates": [ 11.157621944724687, 47.377265163159059 ] } },
{ "type": "Feature", "properties": { "fid": 98, "name": "Gehrenspitze", "weight": 2, "abv": "GIHE", "name_eng": "Gehrenspitze", "words": null, "days_spent": null }, "geometry": { "type": "Point", "coordinates": [ 11.135086978367267, 47.386677582892297 ] } },
{ "type": "Feature", "properties": { "fid": 99, "name": "Augsburg", "weight": 2, "abv": "ABGG", "name_eng": "Augsburg", "words": null, "days_spent": null }, "geometry": { "type": "Point", "coordinates": [ 10.8999959, 48.3500061 ] } },
{ "type": "Feature", "properties": { "fid": 100, "name": "Goslar", "weight": 2, "abv": "GSOR", "name_eng": "Goslar", "words": null, "days_spent": null }, "geometry": { "type": "Point", "coordinates": [ 10.426385791041604, 51.906250195865702 ] } },
{ "type": "Feature", "properties": { "fid": 101, "name": "Lübeck", "weight": 2, "abv": "LBUK", "name_eng": "Luebeck", "words": "", "days_spent": null }, "geometry": { "type": "Point", "coordinates": [ 10.686876055627101, 53.867008056751345 ] } },
{ "type": "Feature", "properties": { "fid": 102, "name": "Timmendorfer Strand", "weight": 3, "abv": "TRID", "name_eng": "Timmendorfer Strand", "words": "Cold Swim", "days_spent": null }, "geometry": { "type": "Point", "coordinates": [ 10.797236430743471, 53.993006963613233 ] } },
{ "type": "Feature", "properties": { "fid": 103, "name": "Flensburg", "weight": 2, "abv": "FBLG", "name_eng": "Flensburg", "words": "Biggest Jellyfish I ever saw", "days_spent": null }, "geometry": { "type": "Point", "coordinates": [ 9.433789238911698, 54.786206913857505 ] } },
{ "type": "Feature", "properties": { "fid": 104, "name": "Kolding", "weight": 2, "abv": "KDOG", "name_eng": "Kolding", "words": null, "days_spent": null }, "geometry": { "type": "Point", "coordinates": [ 9.477208201645665, 55.489995562811188 ] } },
{ "type": "Feature", "properties": { "fid": 105, "name": "Billund", "weight": 1, "abv": "BLID", "name_eng": "Billund", "words": "Legoland", "days_spent": null }, "geometry": { "type": "Point", "coordinates": [ 9.117076450038367, 55.727780069167991 ] } },
{ "type": "Feature", "properties": { "fid": 106, "name": "Silkeborg", "weight": 2, "abv": "SBIG", "name_eng": "Silkeborg", "words": "Leah was here", "days_spent": null }, "geometry": { "type": "Point", "coordinates": [ 9.550347453697714, 56.169540914646227 ] } },
{ "type": "Feature", "properties": { "fid": 107, "name": "Kopenhavn", "weight": 1, "abv": "KHON", "name_eng": "Copenhagen", "words": null, "days_spent": null }, "geometry": { "type": "Point", "coordinates": [ 12.570396068532112, 55.686163937127603 ] } },
{ "type": "Feature", "properties": { "fid": 108, "name": "Roskilde", "weight": 2, "abv": "RIOE", "name_eng": "Roskilde", "words": "Viking Central", "days_spent": null }, "geometry": { "type": "Point", "coordinates": [ 12.082107741944416, 55.64345116473077 ] } },
{ "type": "Feature", "properties": { "fid": 109, "name": "Piesberg", "weight": 3, "abv": "PBIG", "name_eng": "Piesberg", "words": null, "days_spent": null }, "geometry": { "type": "Point", "coordinates": [ 8.018547230367775, 52.317827400695862 ] } },
{ "type": "Feature", "properties": { "fid": 110, "name": "Hameln", "weight": 2, "abv": "HMAN", "name_eng": "Hamlen", "words": "ratten überall", "days_spent": null }, "geometry": { "type": "Point", "coordinates": [ 9.368427419354839, 52.101451612903169 ] } },
{ "type": "Feature", "properties": { "fid": 111, "name": "Schloss Hämelschenberg", "weight": 3, "abv": "SBCG", "name_eng": "Castle Haemelschenberg", "words": null, "days_spent": null }, "geometry": { "type": "Point", "coordinates": [ 9.343253528225807, 52.027870463709633 ] } }
]
}
