{
"type": "FeatureCollection",
"name": "orte",
"crs": { "type": "name", "properties": { "name": "urn:ogc:def:crs:OGC:1.3:CRS84" } },
"features": [
{ "type": "Feature", "properties": { "name": "Vatican City", "Weight": 3, "abv": "vty" }, "geometry": { "type": "Point", "coordinates": [ 12.4533865, 41.9032822 ] } },
{ "type": "Feature", "properties": { "name": "Dortmund", "Weight": 2, "abv": "drd" }, "geometry": { "type": "Point", "coordinates": [ 7.4500256, 51.5299671 ] } },
{ "type": "Feature", "properties": { "name": "Wuppertal", "Weight": 2, "abv": "wpl" }, "geometry": { "type": "Point", "coordinates": [ 7.169991, 51.25001 ] } },
{ "type": "Feature", "properties": { "name": "Oldenburg", "Weight": 2, "abv": "odg" }, "geometry": { "type": "Point", "coordinates": [ 8.2200044, 53.1299986 ] } },
{ "type": "Feature", "properties": { "name": "Erfurt", "Weight": 2, "abv": "eft" }, "geometry": { "type": "Point", "coordinates": [ 11.0299621, 50.9700529 ] } },
{ "type": "Feature", "properties": { "name": "Augsburg", "Weight": 2, "abv": "agg" }, "geometry": { "type": "Point", "coordinates": [ 10.8999959, 48.3500061 ] } },
{ "type": "Feature", "properties": { "name": "Luzern", "Weight": 2, "abv": "lzn" }, "geometry": { "type": "Point", "coordinates": [ 8.2800008, 47.0504214 ] } },
{ "type": "Feature", "properties": { "name": "Maribor", "Weight": 2, "abv": "mrr" }, "geometry": { "type": "Point", "coordinates": [ 15.6500419, 46.5404783 ] } },
{ "type": "Feature", "properties": { "name": "Utrecht", "Weight": 2, "abv": "urt" }, "geometry": { "type": "Point", "coordinates": [ 5.1200386, 52.1003457 ] } },
{ "type": "Feature", "properties": { "name": "Verona", "Weight": 2, "abv": "vra" }, "geometry": { "type": "Point", "coordinates": [ 10.9900162, 45.4403904 ] } },
{ "type": "Feature", "properties": { "name": "Bonn", "Weight": 2, "abv": "bnn" }, "geometry": { "type": "Point", "coordinates": [ 7.0800223, 50.7204557 ] } },
{ "type": "Feature", "properties": { "name": "Münster", "Weight": 2, "abv": "mnr" }, "geometry": { "type": "Point", "coordinates": [ 7.6200411, 51.9704053 ] } },
{ "type": "Feature", "properties": { "name": "Freiburg", "Weight": 2, "abv": "feg" }, "geometry": { "type": "Point", "coordinates": [ 7.8699483, 48.0004151 ] } },
{ "type": "Feature", "properties": { "name": "Bremerhaven", "Weight": 2, "abv": "bhn" }, "geometry": { "type": "Point", "coordinates": [ 8.5799825, 53.550438 ] } },
{ "type": "Feature", "properties": { "name": "Osnabrück", "Weight": 2, "abv": "onk" }, "geometry": { "type": "Point", "coordinates": [ 8.049989, 52.280438 ] } },
{ "type": "Feature", "properties": { "name": "Göttingen", "Weight": 2, "abv": "gtn" }, "geometry": { "type": "Point", "coordinates": [ 9.920004, 51.5204328 ] } },
{ "type": "Feature", "properties": { "name": "Jena", "Weight": 2, "abv": "jna" }, "geometry": { "type": "Point", "coordinates": [ 11.5800061, 50.9304429 ] } },
{ "type": "Feature", "properties": { "name": "Saarbruecken", "Weight": 2, "abv": "san" }, "geometry": { "type": "Point", "coordinates": [ 6.9700032, 49.2503904 ] } },
{ "type": "Feature", "properties": { "name": "Regensburg", "Weight": 2, "abv": "rgg" }, "geometry": { "type": "Point", "coordinates": [ 12.1200248, 49.0204045 ] } },
{ "type": "Feature", "properties": { "name": "Rosenheim", "Weight": 2, "abv": "rsm" }, "geometry": { "type": "Point", "coordinates": [ 12.1333056, 47.8503467 ] } },
{ "type": "Feature", "properties": { "name": "Leipzig", "Weight": 2, "abv": "lig" }, "geometry": { "type": "Point", "coordinates": [ 12.4099812, 51.3354053 ] } },
{ "type": "Feature", "properties": { "name": "Passau", "Weight": 2, "abv": "psu" }, "geometry": { "type": "Point", "coordinates": [ 13.4411788, 48.5754623 ] } },
{ "type": "Feature", "properties": { "name": "Salzburg", "Weight": 2, "abv": "slg" }, "geometry": { "type": "Point", "coordinates": [ 13.0400203, 47.8104783 ] } },
{ "type": "Feature", "properties": { "name": "Stuttgart", "Weight": 2, "abv": "sut" }, "geometry": { "type": "Point", "coordinates": [ 9.1999963, 48.7799799 ] } },
{ "type": "Feature", "properties": { "name": "Bremen", "Weight": 2, "abv": "ben" }, "geometry": { "type": "Point", "coordinates": [ 8.8000207, 53.0800016 ] } },
{ "type": "Feature", "properties": { "name": "Nürnberg", "Weight": 2, "abv": "nrg" }, "geometry": { "type": "Point", "coordinates": [ 11.0799849, 49.4499907 ] } },
{ "type": "Feature", "properties": { "name": "Rennes", "Weight": 2, "abv": "rns" }, "geometry": { "type": "Point", "coordinates": [ -1.670012, 48.1000214 ] } },
{ "type": "Feature", "properties": { "name": "Nice", "Weight": 2, "abv": "nce" }, "geometry": { "type": "Point", "coordinates": [ 7.2630781, 43.7169636 ] } },
{ "type": "Feature", "properties": { "name": "Lille", "Weight": 2, "abv": "lle" }, "geometry": { "type": "Point", "coordinates": [ 3.0780622, 50.651915 ] } },
{ "type": "Feature", "properties": { "name": "Strasbourg", "Weight": 2, "abv": "srg" }, "geometry": { "type": "Point", "coordinates": [ 7.7500073, 48.5799662 ] } },
{ "type": "Feature", "properties": { "name": "Antwerpen", "Weight": 2, "abv": "atn" }, "geometry": { "type": "Point", "coordinates": [ 4.4130712, 51.2223194 ] } },
{ "type": "Feature", "properties": { "name": "Genoa", "Weight": 2, "abv": "gna" }, "geometry": { "type": "Point", "coordinates": [ 8.9300386, 44.4099882 ] } },
{ "type": "Feature", "properties": { "name": "Cologne", "Weight": 2, "abv": "cle" }, "geometry": { "type": "Point", "coordinates": [ 6.9480586, 50.9319495 ] } },
{ "type": "Feature", "properties": { "name": "Monaco", "Weight": 1, "abv": "mno" }, "geometry": { "type": "Point", "coordinates": [ 7.4069132, 43.7396457 ] } },
{ "type": "Feature", "properties": { "name": "Florence", "Weight": 2, "abv": "foe" }, "geometry": { "type": "Point", "coordinates": [ 11.2500004, 43.7800008 ] } },
{ "type": "Feature", "properties": { "name": "Dresden", "Weight": 2, "abv": "den" }, "geometry": { "type": "Point", "coordinates": [ 13.7500028, 51.0499705 ] } },
{ "type": "Feature", "properties": { "name": "Venice", "Weight": 2, "abv": "vne" }, "geometry": { "type": "Point", "coordinates": [ 12.3349987, 45.4386593 ] } },
{ "type": "Feature", "properties": { "name": "Budapest", "Weight": 1, "abv": "bdt" }, "geometry": { "type": "Point", "coordinates": [ 19.0813748, 47.5019522 ] } },
{ "type": "Feature", "properties": { "name": "Hamburg", "Weight": 2, "abv": "hmg" }, "geometry": { "type": "Point", "coordinates": [ 9.9980533, 53.5519705 ] } },
{ "type": "Feature", "properties": { "name": "Munich", "Weight": 2, "abv": "mnh" }, "geometry": { "type": "Point", "coordinates": [ 11.5730476, 48.1318879 ] } },
{ "type": "Feature", "properties": { "name": "Brussels", "Weight": 1, "abv": "bus" }, "geometry": { "type": "Point", "coordinates": [ 4.3313707, 50.8352629 ] } },
{ "type": "Feature", "properties": { "name": "Amsterdam", "Weight": 1, "abv": "asm" }, "geometry": { "type": "Point", "coordinates": [ 4.9146943, 52.3519145 ] } },
{ "type": "Feature", "properties": { "name": "Berlin", "Weight": 1, "abv": "brn" }, "geometry": { "type": "Point", "coordinates": [ 13.3996028, 52.5237645 ] } },
{ "type": "Feature", "properties": { "name": "Vienna", "Weight": 1, "abv": "vea" }, "geometry": { "type": "Point", "coordinates": [ 16.3646931, 48.2019611 ] } },
{ "type": "Feature", "properties": { "name": "Rome", "Weight": 1, "abv": "rme" }, "geometry": { "type": "Point", "coordinates": [ 12.4813126, 41.8979015 ] } },
{ "type": "Feature", "properties": { "name": "Paris", "Weight": 1, "abv": "prs" }, "geometry": { "type": "Point", "coordinates": [ 2.352992461539213, 48.858092316269108 ] } },
{ "type": "Feature", "properties": { "name": "Dreilaenderpunkt", "Weight": 3, "abv": "det" }, "geometry": { "type": "Point", "coordinates": [ 6.019877426428817, 50.755442525367933 ] } },
{ "type": "Feature", "properties": { "name": "Aachen", "Weight": 2, "abv": "acn" }, "geometry": { "type": "Point", "coordinates": [ 6.084049851174387, 50.775179144119015 ] } },
{ "type": "Feature", "properties": { "name": "Konigstein", "Weight": 3, "abv": "knn" }, "geometry": { "type": "Point", "coordinates": [ 14.060697916087756, 50.918008383666731 ] } },
{ "type": "Feature", "properties": { "name": "Bad Schandau", "Weight": 3, "abv": "bdu" }, "geometry": { "type": "Point", "coordinates": [ 14.157035600686918, 50.920917722449246 ] } },
{ "type": "Feature", "properties": { "name": "Frauenstein", "Weight": 2, "abv": "fan" }, "geometry": { "type": "Point", "coordinates": [ 13.53806255137337, 50.783017727749247 ] } },
{ "type": "Feature", "properties": { "name": "Weimar", "Weight": 2, "abv": "wir" }, "geometry": { "type": "Point", "coordinates": [ 11.325890261815381, 50.990868845549421 ] } },
{ "type": "Feature", "properties": { "name": "Oberaudorf", "Weight": 2, "abv": "oef" }, "geometry": { "type": "Point", "coordinates": [ 12.172594672416713, 47.647649287474607 ] } },
{ "type": "Feature", "properties": { "name": "Mittelneufnach", "Weight": 2, "abv": "mth" }, "geometry": { "type": "Point", "coordinates": [ 10.594127669515744, 48.1803442103583 ] } },
{ "type": "Feature", "properties": { "name": "Schwabmunchen", "Weight": 2, "abv": "shn" }, "geometry": { "type": "Point", "coordinates": [ 10.757445643622429, 48.178180499061135 ] } },
{ "type": "Feature", "properties": { "name": "Falkenberg", "Weight": 2, "abv": "flg" }, "geometry": { "type": "Point", "coordinates": [ 13.24542403563213, 51.582149737133662 ] } },
{ "type": "Feature", "properties": { "name": "Bad Liebenwerda", "Weight": 2, "abv": "bda" }, "geometry": { "type": "Point", "coordinates": [ 13.406371424872649, 51.519734219136126 ] } },
{ "type": "Feature", "properties": { "name": "Uebigau", "Weight": 2, "abv": "ubu" }, "geometry": { "type": "Point", "coordinates": [ 13.302534399556185, 51.595052602241537 ] } },
{ "type": "Feature", "properties": { "name": "Klosterneuburg", "Weight": 3, "abv": "kog" }, "geometry": { "type": "Point", "coordinates": [ 16.310698431152549, 48.31822422946847 ] } },
{ "type": "Feature", "properties": { "name": "Chur", "Weight": 2, "abv": "cur" }, "geometry": { "type": "Point", "coordinates": [ 9.525985394248652, 46.854569540019568 ] } },
{ "type": "Feature", "properties": { "name": "Ovelgoenne", "Weight": 3, "abv": "oee" }, "geometry": { "type": "Point", "coordinates": [ 8.419183657038637, 53.342086168537463 ] } },
{ "type": "Feature", "properties": { "name": "Brake", "Weight": 3, "abv": "bae" }, "geometry": { "type": "Point", "coordinates": [ 8.476438239053412, 53.32804900471772 ] } },
{ "type": "Feature", "properties": { "name": "Nordenham", "Weight": 2, "abv": "nrm" }, "geometry": { "type": "Point", "coordinates": [ 8.483649143589275, 53.486666269724822 ] } },
{ "type": "Feature", "properties": { "name": "Boeblingen", "Weight": 2, "abv": "bbn" }, "geometry": { "type": "Point", "coordinates": [ 9.032158615284123, 48.676666637966242 ] } },
{ "type": "Feature", "properties": { "name": "Alpirsbach", "Weight": 2, "abv": "aph" }, "geometry": { "type": "Point", "coordinates": [ 8.399810360185603, 48.348670652263706 ] } },
{ "type": "Feature", "properties": { "name": "Freudenstadt", "Weight": 2, "abv": "fet" }, "geometry": { "type": "Point", "coordinates": [ 8.410554607944043, 48.463556979021376 ] } },
{ "type": "Feature", "properties": { "name": "Tuebingen", "Weight": 2, "abv": "ten" }, "geometry": { "type": "Point", "coordinates": [ 9.055449836934997, 48.520266017833066 ] } },
{ "type": "Feature", "properties": { "name": "Duerrenmettstetten", "Weight": 2, "abv": "den" }, "geometry": { "type": "Point", "coordinates": [ 8.580587736899769, 48.386101026373979 ] } },
{ "type": "Feature", "properties": { "name": "Gutach", "Weight": 2, "abv": "gth" }, "geometry": { "type": "Point", "coordinates": [ 8.197688706045284, 48.271783576944522 ] } },
{ "type": "Feature", "properties": { "name": "Sanremo", "Weight": 2, "abv": "sno" }, "geometry": { "type": "Point", "coordinates": [ 7.774889336759005, 43.818373609951749 ] } },
{ "type": "Feature", "properties": { "name": "Cinque Terre", "Weight": 2, "abv": "cne" }, "geometry": { "type": "Point", "coordinates": [ 9.684433003250133, 44.135910075448081 ] } },
{ "type": "Feature", "properties": { "name": "Èze", "Weight": 3, "abv": "èee" }, "geometry": { "type": "Point", "coordinates": [ 7.3618487249446, 43.728433802236751 ] } },
{ "type": "Feature", "properties": { "name": "Le Mont-Saint-Michel", "Weight": 2, "abv": "l l" }, "geometry": { "type": "Point", "coordinates": [ -1.511313524529238, 48.635852728190422 ] } },
{ "type": "Feature", "properties": { "name": "Beverungen", "Weight": 3, "abv": "bvn" }, "geometry": { "type": "Point", "coordinates": [ 9.373594945057409, 51.666927498136644 ] } },
{ "type": "Feature", "properties": { "name": "Rubihorn", "Weight": 2, "abv": "rbn" }, "geometry": { "type": "Point", "coordinates": [ 10.314346024426714, 47.42502180957122 ] } },
{ "type": "Feature", "properties": { "name": "Brunnstein", "Weight": 2, "abv": "bun" }, "geometry": { "type": "Point", "coordinates": [ 12.097517019254731, 47.64708413821031 ] } },
{ "type": "Feature", "properties": { "name": "Senftenberg", "Weight": 2, "abv": "sng" }, "geometry": { "type": "Point", "coordinates": [ 14.004580009970089, 51.518896435692902 ] } },
{ "type": "Feature", "properties": { "name": "San Fruttuoso", "Weight": 2, "abv": "sno" }, "geometry": { "type": "Point", "coordinates": [ 9.176346448934451, 44.317853081380875 ] } },
{ "type": "Feature", "properties": { "name": "Interlaken", "Weight": 2, "abv": "itn" }, "geometry": { "type": "Point", "coordinates": [ 7.884737682087827, 46.692917292236842 ] } },
{ "type": "Feature", "properties": { "name": "Lauterbrunnen", "Weight": 2, "abv": "lun" }, "geometry": { "type": "Point", "coordinates": [ 7.908654761788058, 46.593771834147525 ] } }
]
}
